{
    "carpoolId": "003",
    "carpoolName": "Forsyth Womens Tennis",
    "carpoolLocation":  {
        "name": "West Forsyth High School",
        "address": "4155 Drew Rd", 
        "city": "Cumming", 
        "state": "GA",
        "zipCode": "30040"
    },
    "carpoolMembers": [
        1, 2, 3, 4, 5, 6, 7, 8, 9, 10,
        11, 12, 13, 14, 15, 16, 17, 18, 19, 20,
        21, 22, 23, 24, 25, 26, 27, 28, 29, 30
    ],
    "availabilities": [
        {"userId": "1", "availability": [1, 5]},
        {"userId": "2", "availability": [0, 1, 4, 5, 6]},
        {"userId": "3", "availability": [1, 2, 3]},
        {"userId": "4", "availability": [1, 2, 4, 6]},
        {"userId": "5", "availability": [1, 2, 3, 4, 5, 6]},
        {"userId": "6", "availability": [1, 4, 6]},
        {"userId": "7", "availability": [1, 3, 5, 6]},
        {"userId": "8", "availability": [0, 1, 3, 4]},
        {"userId": "9", "availability": [2, 3, 5]},
        {"userId": "10", "availability": [3, 4, 5, 6]},
        {"userId": "11", "availability": [0, 2]},
        {"userId": "12", "availability": [2, 4, 5, 6]},
        {"userId": "13", "availability": [5]},
        {"userId": "14", "availability": [4, 5, 6]},
        {"userId": "15", "availability": [2, 3, 5]},
        {"userId": "16", "availability": [4]},
        {"userId": "17",  "availability": [0, 4]},
        {"userId": "18", "availability": [3, 5]},
        {"userId": "19", "availability": [1, 4, 5]},
        {"userId": "20", "availability": [0, 1, 2, 6]},
        {"userId": "21", "availability": [3, 4, 5, 6]},
        {"userId": "22", "availability": [0, 1, 3]},
        {"userId": "23", "availability": [3, 6]},
        {"userId": "24", "availability": [4]},
        {"userId": "25", "availability": [2, 6]},
        {"userId": "26", "availability": [0, 1, 4]},
        {"userId": "27", "availability": [0, 2, 5, 6]},
        {"userId": "28", "availability": [1, 2, 4, 5, 6]},
        {"userId": "29", "availability": [0, 1, 2, 3, 4, 5, 6]},
        {"userId": "30", "availability": [4, 6]}
    ],
    "users": [
        {
            "userId": "1",
            "name": "Max Verstappen",
            "numchildren": 1,
            "children": [
                "Penelope"
            ],
            "carCapacity": 6,
            "location": {
                "address": "5435 Cole Creek Ln", 
                "city": "Cumming", 
                "state": "GA",
                "zipCode": "30040"
            }
        },
        {
            "userId": "2",
            "name": "Sergio Perez",
            "numchildren": 5,
            "children": [
                "Smith",
                "Anders",
                "Wallace",
                "Meester",
                "Leighton"
            ],
            "carCapacity": 4,
            "location": {
                "address": "3520 Davyne Bend", 
                "city": "Cumming", 
                "state": "GA",
                "zipCode": "30040"
            }
        },
        {
            "userId": "3",
            "name": "Charles Leclerc",
            "numchildren": 2,
            "children": [
                "Leo",
                "Alexandria"
            ],
            "carCapacity": 3,
            "location": {
                "address": "5005 Deerfield Dr", 
                "city": "Cumming", 
                "state": "GA",
                "zipCode": "30028"
            }
        },
        {
            "userId": "4",
            "name": "Carlos Sainz",
            "numchildren": 2,
            "children": [
                "Pedro",
                "Paula"
            ],
            "carCapacity": 7,
            "location": {
                "address": "2105 Golden Ridge Cir", 
                "city": "Cumming", 
                "state": "GA",
                "zipCode": "30040"
            }
        },
        {
            "userId": "5",
            "name": "Lando Norris",
            "numchildren": 1,
            "children": [
                "Nestor"
            ],
            "carCapacity": 4,
            "location": {
                "address": "106 11th St", 
                "city": "Cumming", 
                "state": "GA",
                "zipCode": "30040"
            }
        },
        {
            "userId": "6",
            "name": "Oscar Piastri",
            "numchildren": 3,
            "children": [
                "Kiwi",
                "Elia",
                "Lawson"
            ],
            "carCapacity": 3,
            "location": {
                "address": "111 Spruce St", 
                "city": "Cumming", 
                "state": "GA",
                "zipCode": "30040"
            }
        },
        {
            "userId": "7",
            "name": "Lewis Hamilton",
            "numchildren": 2,
            "children": [
                "Wocka",
                "Roscoe"
            ],
            "carCapacity": 4,
            "location": {
                "address": "950 Mary Alice Park Rd", 
                "city": "Cumming", 
                "state": "GA",
                "zipCode": "30041"
            }
        },
        {
            "userId": "8",
            "name": "George Russell",
            "numchildren": 2,
            "children": [
                "Rusty",
                "Rex"
            ],
            "carCapacity": 6,
            "location": {
                "address": "735 Sanders Rd", 
                "city": "Cumming", 
                "state": "GA",
                "zipCode": "30041"
            }
        },
        {
            "userId": "9",
            "name": "Pierre Gasly",
            "numchildren": 1,
            "children": [
                "Alisha"
            ],
            "carCapacity": 3,
            "location": {
                "address": "1430 Sassafras Ln", 
                "city": "Cumming", 
                "state": "GA",
                "zipCode": "30041"
            }
        },
        {
            "userId": "10",
            "name": "Estban Ocon",
            "numchildren": 3,
            "children": [
                "Rida",
                "Ethan",
                "Lucky"
            ],
            "carCapacity": 6,
            "location": {
                "address": "5160 Tallantworth Crossing", 
                "city": "Cumming", 
                "state": "GA",
                "zipCode": "30040"
            }
        },
        {
            "userId": "11",
            "name": "Fernando Alonso",
            "numchildren": 4,
            "children": [
                "Lilyan",
                "Lonnie",
                "Lillian",
                "Nara"
            ],
            "carCapacity": 4,
            "location": {
                "address": "4945 Hyde Way", 
                "city": "Cumming", 
                "state": "GA",
                "zipCode": "30040"
            }
        },
        {
            "userId": "12",
            "name": "Lance Stroll",
            "numchildren": 2,
            "children": [
                "Valerie",
                "Ronda"
            ],
            "carCapacity": 3,
            "location": {
                "address": "5020 Deerfield Dr", 
                "city": "Cumming", 
                "state": "GA",
                "zipCode": "30028"
            }
        },
        {
            "userId": "13",
            "name": "Kevin Magnussen",
            "numchildren": 2,
            "children": [
                "Bill",
                "Dill"
            ],
            "carCapacity": 6,
            "location": {
                "address": "5955 Hidden Ridge Ct", 
                "city": "Cumming", 
                "state": "GA",
                "zipCode": "30028"
            }
        },
        {
            "userId": "14",
            "name": "Nico Hulkenberg",
            "numchildren": 1,
            "children": [
                "Tejas"
            ],
            "carCapacity": 4,
            "location": {
                "address": "3785 Westhaven Dr", 
                "city": "Cumming", 
                "state": "GA",
                "zipCode": "30040"
            }
        },
        {
            "userId": "15",
            "name": "Zhou Guanyu",
            "numchildren": 3,
            "children": [
                "Glenn",
                "Hanson",
                "Nelson"
            ],
            "carCapacity": 4,
            "location": {
                "address": "5695 Vendelay Ln", 
                "city": "Cumming", 
                "state": "GA",
                "zipCode": "30040"
            }
        },
        {
            "userId": "16",
            "name": "Daniel Riccardo",
            "numchildren": 2,
            "children": [
                "Marcus",
                "Lionel"
            ],
            "carCapacity": 7,
            "location": {
                "address": "4805 Bayberry Dr", 
                "city": "Cumming", 
                "state": "GA",
                "zipCode": "30040"
            }
        },
        {
            "userId": "17",
            "name": "Yuki Tsunoda",
            "numchildren": 1,
            "children": [
                "Yolanda"
            ],
            "carCapacity": 5,
            "location": {
                "address": "5450 Harris Creek Dr", 
                "city": "Cumming", 
                "state": "GA",
                "zipCode": "30040"
            }
        },
        {
            "userId": "18",
            "name": "Logan Sargeant",
            "numchildren": 2,
            "children": [
                "Boonton",
                "Barbara"
            ],
            "carCapacity": 3,
            "location": {
                "address": "3990 Danbury Farms Dr", 
                "city": "Cumming", 
                "state": "GA",
                "zipCode": "30040"
            }
        },
        {
            "userId": "19",
            "name": "Alexander Albon",
            "numchildren": 3,
            "children": [
                "Solange",
                "Beyonce",
                "Michelle"
            ],
            "carCapacity": 3,
            "location": {
                "address": "4835 Sweetfern Ct", 
                "city": "Cumming", 
                "state": "GA",
                "zipCode": "30040"
            }
        },
        {
            "userId": "20",
            "name": "Valtteri Bottas",
            "numchildren": 4,
            "children": [
                "Mikka",
                "Minna",
                "Mippa",
                "Milla"
            ],
            "carCapacity": 3,
            "location": {
                "address": "6415 Yellow Birch St", 
                "city": "Cumming", 
                "state": "GA",
                "zipCode": "30040"
            }
        },
        {
            "userId": "21",
            "name": "Franco Colapinto",
            "numchildren": 1,
            "children": [
                "Emerald"
            ],
            "carCapacity": 6,
            "location": {
                "address": "7065 Round Rd", 
                "city": "Cumming", 
                "state": "GA",
                "zipCode": "30040"
            }
        },
        {
            "userId": "22",
            "name": "Liam Lawson",
            "numchildren": 1,
            "children": [
                "Kyle"
            ],
            "carCapacity": 4,
            "location": {
                "address": "7055 Red Fox Ln", 
                "city": "Cumming", 
                "state": "GA",
                "zipCode": "30040"
            }
        },
        {
            "userId": "23",
            "name": "Oliver Bearman",
            "numchildren": 3,
            "children": [
                "Dolly",
                "Dotty",
                "Denny"
            ],
            "carCapacity": 4,
            "location": {
                "address": "6120 Wellington Ct", 
                "city": "Cumming", 
                "state": "GA",
                "zipCode": "30040"
            }
        },
        {
            "userId": "24",
            "name": "Jack Doohan",
            "numchildren": 2,
            "children": [
                "James",
                "Charlotte"
            ],
            "carCapacity": 4,
            "location": {
                "address": "6690 Buckingham Cir", 
                "city": "Cumming", 
                "state": "GA",
                "zipCode": "30040"
            }
        },
        {
            "userId": "25",
            "name": "Kimi Antonelli",
            "numchildren": 1,
            "children": [
                "Andrea"
            ],
            "carCapacity": 4,
            "location": {
                "address": "4825 Oakmont Bend Dr", 
                "city": "Alpharetta", 
                "state": "GA",
                "zipCode": "30004"
            }
        },
        {
            "userId": "26",
            "name": "Isack Hadjar",
            "numchildren": 2,
            "children": [
                "Nino",
                "Nina"
            ],
            "carCapacity": 4,
            "location": {
                "address": "5010 Deerfield Dr", 
                "city": "Cumming", 
                "state": "GA",
                "zipCode": "30028"
            }
        },
        {
            "userId": "27",
            "name": "Gabriel Bortoleto",
            "numchildren": 1,
            "children": [
                "Gabriella"
            ],
            "carCapacity": 4,
            "location": {
                "address": "6855 Worley Rd", 
                "city": "Cumming", 
                "state": "GA",
                "zipCode": "30028"
            }
        },
        {
            "userId": "28",
            "name": "Sebastian Vettel",
            "numchildren": 2,
            "children": [
                "Troy",
                "Chad"
            ],
            "carCapacity": 3,
            "location": {
                "address": "4205 Pheasant Run Trce", 
                "city": "Cumming", 
                "state": "GA",
                "zipCode": "30028"
            }
        },
        {
            "userId": "29",
            "name": "Jenson Button",
            "numchildren": 2,
            "children": [
                "Sharpay",
                "Zeke"
            ],
            "carCapacity": 6,
            "location": {
                "address": "5025 Pinto Pass", 
                "city": "Cumming", 
                "state": "GA",
                "zipCode": "30040"
            }
        },
        {
            "userId": "30",
            "name": "Michael Schumacher",
            "numchildren": 1,
            "children": [
                "Nichoulas"
            ],
            "carCapacity": 4,
            "location": {
                "address": "4215 Bellehurst Ln", 
                "city": "Cumming", 
                "state": "GA",
                "zipCode": "30040"
            }
        }
      ]
}
