{
    "users": [
        {
            "userId": "1",
            "name": "Selina Meyer",
            "numchildren": 2,
            "children": [
                "Neha",
                "Shriya"
            ],
            "carCapacity": 4,
            "location": {
                "address": "120 North Avenue NW", 
                "city": "Atlanta", 
                "state": "GA",
                "zipCode": "30313"
            },
            "availability": [0, 2, 4, 5]
        },
        {
            "userId": "2",
            "name": "Amy Brookheimer",
            "numchildren": 3,
            "children": [
                "Rebecca",
                "Shreya",
                "Nishka"
            ],
            "carCapacity": 7,
            "location": {
                "address": "931 Monroe Dr NE", 
                "city": "Atlanta", 
                "state": "GA",
                "zipCode": "30308"
            },
            "availability": [0, 1, 4, 6]
        },
        {
            "userId": "3",
            "name": "Dan Egan",
            "numchildren": 1,
            "children": [
                "Risha"
            ],
            "carCapacity": 4,
            "location": {
                "address": "546 Orme Cir NE", 
                "city": "Atlanta", 
                "state": "GA",
                "zipCode": "30306"
            },
            "availability": [1, 3, 4, 5, 6]
        },
        {
            "userIdd": "4",
            "name": "Gary Walsh",
            "numchildren": 2,
            "children": [
                "Alex",
                "Patrick"
            ],
            "carCapacity": 6,
            "location": {
                "address": "1736 Friar Tuck Rd NE", 
                "city": "Atlanta", 
                "state": "GA",
                "zipCode": "30309"
            },
            "availability": [2, 4, 6]
        },
        {
            "userIdd": "5",
            "name": "Mike McLintock",
            "numchildren": 2,
            "children": [
                "Nathan",
                "Hiroshi"
            ],
            "carCapacity": 7,
            "location": {
                "address": "2165 Burnside Dr NW", 
                "city": "Atlanta", 
                "state": "GA",
                "zipCode": "30318"
            },
            "availability": [1, 2, 3, 4, 5]
        },
        {
            "userId": "6",
            "name": "Sue Wilson",
            "numchildren": 3,
            "children": [
                "Bryan",
                "Elie",
                "Marco"
            ],
            "carCapacity": 3,
            "location": {
                "address": "1070 St James Crossing", 
                "city": "Atlanta", 
                "state": "GA",
                "zipCode": "30319"
            },
            "availability": [1, 2, 4, 6]
        },
        {
            "userId": "7",
            "name": "Jonah Ryan",
            "numchildren": 1,
            "children": [
                "Lauren"
            ],
            "carCapacity": 4,
            "location": {
                "address": "3978 Stovall Terrace NE", 
                "city": "Atlanta", 
                "state": "GA",
                "zipCode": "30342"
            },
            "availability": [1, 3]
        },
        {
            "userId": "8",
            "name": "Kent Davidson",
            "numchildren": 4,
            "children": [
                "Grace",
                "Hannah",
                "Lily",
                "Chaerin"
            ],
            "carCapacity": 4,
            "location": {
                "address": "1330 Fairmont Ave NW", 
                "city": "Atlanta", 
                "state": "GA",
                "zipCode": "30318"
            },
            "availability": [1, 3, 4]
        },
        {
            "userId": "9",
            "name": "Minna Hakkinen",
            "numchildren": 2,
            "children": [
                "Peter",
                "Shivani"
            ],
            "carCapacity": 4,
            "location": {
                "address": "1392 West Ave NW", 
                "city": "Atlanta", 
                "state": "GA",
                "zipCode": "30318"
            },
            "availability": [0, 2, 3, 5]
        },
        {
            "userId": "10",
            "name": "Danny Chung",
            "numchildren": 3,
            "children": [
                "Nathan",
                "Benedict",
                ""
            ],
            "carCapacity": 7,
            "location": {
                "address": "5689 Roundelay Way", 
                "city": "Stone Mountain", 
                "state": "GA",
                "zipCode": "30087"
            },
            "availability": [2, 4, 5, 6]
        },
        {
            "userId": "11",
            "name": "Roger Furlong",
            "numchildren": 1,
            "children": [
                "Jocelyn"
            ],
            "carCapacity": 6,
            "location": {
                "address": "3938 Emerald Springs Ct", 
                "city": "Decatur", 
                "state": "GA",
                "zipCode": "30035"
            },
            "availability": [1, 2, 3, 6]
        },
        {
            "userId": "12",
            "name": "Bill Ericsson",
            "numchildren": 2,
            "children": [
                "Emmaly",
                "Sun"
            ],
            "carCapacity": 7,
            "location": {
                "address": "240 Kings Hwy", 
                "city": "Decatur", 
                "state": "GA",
                "zipCode": "30030"
            },
            "availability": [0, 2, 4, 6]
        },
        {
            "userId": "13",
            "name": "Wendy Keegan",
            "numchildren": 3,
            "children": [
                "Steven",
                "Ben",
                "Annika"
            ],
            "carCapacity": 4,
            "location": {
                "address": "522 Ralph McGill Blvd NE", 
                "city": "Atlanta", 
                "state": "GA",
                "zipCode": "30312"
            },
            "availability": [1, 3, 5]
        },
        {
            "userId": "14",
            "name": "Catherine Meyer",
            "numchildren": 2,
            "children": [
                "Tanvi",
                "Adam"
            ],
            "carCapacity": 4,
            "location": {
                "address": "974 Oglethorpe Ave SW", 
                "city": "Atlanta", 
                "state": "GA",
                "zipCode": "30310"
            },
            "availability": [0, 2, 3]
        },
        {
            "userId": "15",
            "name": "Ben Cafferty",
            "numchildren": 4,
            "children": [
                "Amelia",
                "Camylle",
                "Kaz",
                "Tobi"
            ],
            "carCapacity": 6,
            "location": {
                "address": "2372 Coronet Way NW", 
                "city": "Atlanta", 
                "state": "GA",
                "zipCode": "30318"
            },
            "availability": [0, 1, 2, 5]
        },
        {
            "userId": "16",
            "name": "Tom James",
            "numchildren": 1,
            "children": [
                "Melissa"
            ],
            "carCapacity": 6,
            "location": {
                "address": "2483 Reed St", 
                "city": "Smyrna", 
                "state": "GA",
                "zipCode": "30080"
            },
            "availability": [1, 4, 6]
        },
        {
            "userId": "17",
            "name": "Richard Maddox",
            "numchildren": 2,
            "children": [
                "Emily",
                "Elliana"
            ],
            "carCapacity": 4,
            "location": {
                "address": "5081 Hidden Branches Cir", 
                "city": "Dunwoody", 
                "state": "GA",
                "zipCode": "30338"
            },
            "availability": [0, 6]
        },
        {
            "userId": "18",
            "name": "Ray Whelans",
            "numchildren": 1,
            "children": [
                "CiCi"
            ],
            "carCapacity": 7,
            "location": {
                "address": "3648 Creekstone Dr", 
                "city": "Norcross", 
                "state": "GA",
                "zipCode": "30092"
            },
            "availability": [1, 3, 4]
        },
        {
            "userId": "19",
            "name": "Jane McCabe",
            "numchildren": 2,
            "children": [
                "Zach",
                "Miles"
            ],
            "carCapacity": 4,
            "location": {
                "address": "365 Fort St NE", 
                "city": "Marietta", 
                "state": "GA",
                "zipCode": "30060"
            },
            "availability": [4, 5]
        },
        {
            "userId": "20",
            "name": "Jeff Kane",
            "numchildren": 5,
            "children": [
                "Keith",
                "Rainie",
                "Jeff",
                "Larry",
                "Mark"
            ],
            "carCapacity": 3,
            "location": {
                "address": "3672 Haddon Hall Rd NW", 
                "city": "Atlanta", 
                "state": "GA",
                "zipCode": "30327"
            },
            "availability": [0, 1, 5]
        },
        {
            "userId": "21",
            "name": "Amy Sosa",
            "numchildren": 2,
            "children": [
                "Nina",
                "Rafi"
            ],
            "carCapacity": 4,
            "location": {
                "address": "1248 Francis St NW", 
                "city": "Atlanta", 
                "state": "GA",
                "zipCode": "30318"
            },
            "availability": [1, 3, 4, 6]
        },
        {
            "userId": "22",
            "name": "Jonah Simms",
            "numchildren": 2,
            "children": [
                "Kailyn",
                "Jenna"
            ],
            "carCapacity": 7,
            "location": {
                "address": "796 Caron Cir NW", 
                "city": "Atlanta", 
                "state": "GA",
                "zipCode": "30318"
            },
            "availability": [0, 3, 6]
        },
        {
            "userId": "23",
            "name": "Dina Fox",
            "numchildren": 5,
            "children": [
                "Devin",
                "Will",
                "Jonathan",
                "Rachel",
                "Marissa"
            ],
            "carCapacity": 3,
            "location": {
                "address": "242 2nd Ave SE", 
                "city": "Atlanta", 
                "state": "GA",
                "zipCode": "30317"
            },
            "availability": [0, 1, 2, 3]
        },
        {
            "userId": "24",
            "name": "Garrett McNeill",
            "numchildren": 2,
            "children": [
                "Alysa",
                "Damian"
            ],
            "carCapacity": 4,
            "location": {
                "address": "3089 Ladovie Pl", 
                "city": "Atlanta", 
                "state": "GA",
                "zipCode": "30345"
            },
            "availability": [2, 3, 4]
        },
        {
            "userId": "25",
            "name": "Mateo Liwanag",
            "numchildren": 1,
            "children": [
                "Derek"
            ],
            "carCapacity": 4,
            "location": {
                "address": "510 Boulevard NE", 
                "city": "Atlanta", 
                "state": "GA",
                "zipCode": "30308"
            },
            "availability": [2, 4, 5, 6]
        },
        {
            "userId": "26",
            "name": "Cheyenne Thompson",
            "numchildren": 3,
            "children": [
                "Chris",
                "Riley",
                "Isabella"
            ],
            "carCapacity": 3,
            "location": {
                "address": "1097 Benteen Ave SE", 
                "city": "Atlanta", 
                "state": "GA",
                "zipCode": "30312"
            },
            "availability": [0, 1]
        },
        {
            "userId": "27",
            "name": "Glenn Sturgis",
            "numchildren": 2,
            "children": [
                "Insharah",
                "Isabelle"
            ],
            "carCapacity": 4,
            "location": {
                "address": "4948 Sheila Ln", 
                "city": "Stone Mountain", 
                "state": "GA",
                "zipCode": "30083"
            },
            "availability": [3]
        },
        {
            "userId": "28",
            "name": "Sandra Kaluiokalani",
            "numchildren": 4,
            "children": [
                "Haley",
                "Hailey",
                "Haleigh",
                "Hayley"
            ],
            "carCapacity": 3,
            "location": {
                "address": "1180 Kimlie Ln", 
                "city": "Decatur", 
                "state": "GA",
                "zipCode": "30035"
            },
            "availability": [1, 5]
        },
        {
            "userId": "29",
            "name": "Jeff Sutton",
            "numchildren": 1,
            "children": [
                "Cody"
            ],
            "carCapacity": 6,
            "location": {
                "address": "862 Valley Brook Rd", 
                "city": "Decatur", 
                "state": "GA",
                "zipCode": "30033"
            },
            "availability": [4, 5, 6]
        },
        {
            "userId": "30",
            "name": "Marcus White",
            "numchildren": 2,
            "children": [
                "Tanner",
                "Michael"
            ],
            "carCapacity": 3,
            "location": {
                "address": "695 Old Powder Springs Rd SW", 
                "city": "Mableton", 
                "state": "GA",
                "zipCode": "30126"
            },
            "availability": [2, 3, 6]
        }
      ]
}
