{
    "carpoolId": "002",
    "carpoolName": "Dunwoody Track & Field",
    "carpoolLocation": {
        "name": "Dunwoody High School",
        "address": "5035 Vermack Rd",
        "city": "Dunwoody",
        "state": "GA",
        "zipCode": "30338"
    },
    "carpoolDays": [2, 3, 4],
    "carpoolMembers": [
        1, 2, 3, 4, 5, 6, 7, 8, 9, 10, 11, 12, 13, 14, 15, 16, 17, 18, 19, 20,
        21, 22, 23, 24, 25, 26, 27, 28, 29, 30
    ],
    "availabilities": [
        { "userId": "1", "availability": [1, 2, 3, 6] },
        { "userId": "2", "availability": [0, 4, 5] },
        { "userId": "3", "availability": [0, 1, 3, 4, 5, 6] },
        { "userId": "4", "availability": [1, 2, 3, 4, 6] },
        { "userId": "5", "availability": [2, 3, 5] },
        { "userId": "6", "availability": [4, 6] },
        { "userId": "7", "availability": [1, 3, 6] },
        { "userId": "8", "availability": [1, 2, 4] },
        { "userId": "9", "availability": [0, 2, 4, 5, 6] },
        { "userId": "10", "availability": [3, 4, 5, 6] },
        { "userId": "11", "availability": [0, 1, 3, 6] },
        { "userId": "12", "availability": [2, 4, 6] },
        { "userId": "13", "availability": [0, 1, 2, 3, 4, 5, 6] },
        { "userId": "14", "availability": [0, 1, 2, 3] },
        { "userId": "15", "availability": [4, 5, 6] },
        { "userId": "16", "availability": [0, 2, 4, 6] },
        { "userId": "17", "availability": [1, 3] },
        { "userId": "18", "availability": [2, 4] },
        { "userId": "19", "availability": [5, 6] },
        { "userId": "20", "availability": [0, 1, 3, 4] },
        { "userId": "21", "availability": [1, 2, 3, 5] },
        { "userId": "22", "availability": [1, 2, 3, 4, 5] },
        { "userId": "23", "availability": [0, 1, 5, 6] },
        { "userId": "24", "availability": [2, 4, 5] },
        { "userId": "25", "availability": [1, 3] },
        { "userId": "26", "availability": [1] },
        { "userId": "27", "availability": [6] },
        { "userId": "28", "availability": [1, 5, 6] },
        { "userId": "29", "availability": [0, 2, 5] },
        { "userId": "30", "availability": [2] }
    ],
    "users": [
        {
            "userId": "1",
            "name": "Leslie Knope",
            "numchildren": 3,
            "children": ["Autumn", "Lindsey", "Taylor"],
            "carCapacity": 6,
            "location": {
                "address": "4940 Vernon Oaks Dr",
                "city": "Dunwoody",
                "state": "GA",
                "zipCode": "30338"
            }
        },
        {
            "userId": "2",
            "name": "Ann Perkins",
            "numchildren": 1,
            "children": ["Annastasia"],
            "carCapacity": 3,
            "location": {
                "address": "5118 Hidden Branches Dr",
                "city": "Dunwoody",
                "state": "GA",
                "zipCode": "30338"
            }
        },
        {
            "userId": "3",
            "name": "April Ludgate",
            "numchildren": 2,
            "children": ["Craig", "Jennifer"],
            "carCapacity": 4,
            "location": {
                "address": "1498 Meadowcreek Ct",
                "city": "Dunwoody",
                "state": "GA",
                "zipCode": "30338"
            }
        },
        {
            "userId": "4",
            "name": "Ron Swanson",
            "numchildren": 2,
            "children": ["David", "Gary"],
            "carCapacity": 4,
            "location": {
                "address": "135 Hemmingwood Way",
                "city": "Dunwoody",
                "state": "GA",
                "zipCode": "30350"
            }
        },
        {
            "userId": "5",
            "name": "Ben Wyatt",
            "numchildren": 3,
            "children": ["Alexis", "Moira", "Mabel"],
            "carCapacity": 6,
            "location": {
                "address": "4926 Summerford Dr",
                "city": "Dunwoody",
                "state": "GA",
                "zipCode": "30338"
            }
        },
        {
            "userId": "6",
            "name": "Andy Dwyer",
            "numchildren": 2,
            "children": ["Catherine", "Franco"],
            "carCapacity": 6,
            "location": {
                "address": "7010 Hunters Knoll NE",
                "city": "Dunwoody",
                "state": "GA",
                "zipCode": "30328"
            }
        },
        {
            "userId": "7",
            "name": "Donna Meagle",
            "numchildren": 3,
            "children": ["Mo", "Nikita", "Rishika"],
            "carCapacity": 3,
            "location": {
                "address": "1532 Brompton Ct",
                "city": "Dunwoody",
                "state": "GA",
                "zipCode": "30338"
            }
        },
        {
            "userId": "8",
            "name": "Jerry Gergich",
            "numchildren": 4,
            "children": ["Thomas", "Avaye", "Kaiyan", "Harsha"],
            "carCapacity": 6,
            "location": {
                "address": "1234 Austin Glen Dr",
                "city": "Dunwoody",
                "state": "GA",
                "zipCode": "30338"
            }
        },
        {
            "userId": "9",
            "name": "Chris Traeger",
            "numchildren": 1,
            "children": ["Wendy"],
            "carCapacity": 3,
            "location": {
                "address": "1430 Mockwell Ct",
                "city": "Dunwoody",
                "state": "GA",
                "zipCode": "30338"
            }
        },
        {
            "userId": "10",
            "name": "Tom Haverford",
            "numchildren": 3,
            "children": ["Benjamin", "Benedictine", "Benson"],
            "carCapacity": 4,
            "location": {
                "address": "1298 Valley View Rd",
                "city": "Dunwoody",
                "state": "GA",
                "zipCode": "30338"
            }
        },
        {
            "userId": "11",
            "name": "Bobby Newport",
            "numchildren": 1,
            "children": ["Dennis"],
            "carCapacity": 7,
            "location": {
                "address": "4133 Navajo Trail NE",
                "city": "Atlanta",
                "state": "GA",
                "zipCode": "30319"
            }
        },
        {
            "userId": "12",
            "name": "Jean-Ralphio Saperstein",
            "numchildren": 4,
            "children": ["Emily", "Emmeleigh", "Emmaly", "Emoly"],
            "carCapacity": 7,
            "location": {
                "address": "4404 Ashwoody Trail NE",
                "city": "Dunwoody",
                "state": "GA",
                "zipCode": "30319"
            }
        },
        {
            "userId": "13",
            "name": "Jennifer Barkley",
            "numchildren": 1,
            "children": ["Kevin"],
            "carCapacity": 6,
            "location": {
                "address": "805 Glenairy Dr NE",
                "city": "Atlanta",
                "state": "GA",
                "zipCode": "30328"
            }
        },
        {
            "userId": "14",
            "name": "Mark Brendanawitz",
            "numchildren": 3,
            "children": ["Fred", "Jasmine", "Robert"],
            "carCapacity": 4,
            "location": {
                "address": "1161 Winding Branch Cir",
                "city": "Dunwoody",
                "state": "GA",
                "zipCode": "30338"
            }
        },
        {
            "userId": "15",
            "name": "Ron Dunn",
            "numchildren": 2,
            "children": ["Jeremy", "Beremy"],
            "carCapacity": 4,
            "location": {
                "address": "1259 Valley View Rd",
                "city": "Dunwoody",
                "state": "GA",
                "zipCode": "30338"
            }
        },
        {
            "userId": "16",
            "name": "Tammy Swansons",
            "numchildren": 3,
            "children": ["Kieran", "Mccauley", "Shane"],
            "carCapacity": 6,
            "location": {
                "address": "6515 Canopy Dr",
                "city": "Sandy Springs",
                "state": "GA",
                "zipCode": "30328"
            }
        },
        {
            "userId": "17",
            "name": "Annabel Porter",
            "numchildren": 1,
            "children": ["Jessica"],
            "carCapacity": 3,
            "location": {
                "address": "4710 Layfield Dr",
                "city": "Dunwoody",
                "state": "GA",
                "zipCode": "30338"
            }
        },
        {
            "userId": "18",
            "name": "Diane Lewis",
            "numchildren": 1,
            "children": ["Princess"],
            "carCapacity": 4,
            "location": {
                "address": "1345 Martina Dr",
                "city": "Dunwoody",
                "state": "GA",
                "zipCode": "30338"
            }
        },
        {
            "userId": "19",
            "name": "Pam Beesly",
            "numchildren": 3,
            "children": ["Tracy", "Stacy", "Lacy"],
            "carCapacity": 3,
            "location": {
                "address": "115 Wing Mill Rd",
                "city": "Atlanta",
                "state": "GA",
                "zipCode": "30350"
            }
        },
        {
            "userId": "20",
            "name": "Jim Halpert",
            "numchildren": 2,
            "children": ["Thing1", "Thing2"],
            "carCapacity": 6,
            "location": {
                "address": "135 Classic Cove",
                "city": "Atlanta",
                "state": "GA",
                "zipCode": "30350"
            }
        },
        {
            "userId": "21",
            "name": "Michael Scott",
            "numchildren": 2,
            "children": ["Winter", "Summer"],
            "carCapacity": 7,
            "location": {
                "address": "920 Dunwoody Club Dr",
                "city": "Atlanta",
                "state": "GA",
                "zipCode": "30350"
            }
        },
        {
            "userId": "22",
            "name": "Dwight Schrute",
            "numchildren": 1,
            "children": ["Sandra"],
            "carCapacity": 4,
            "location": {
                "address": "535 Tahoma Dr NE",
                "city": "Atlanta",
                "state": "GA",
                "zipCode": "30350"
            }
        },
        {
            "userId": "23",
            "name": "Kelly Kapoor",
            "numchildren": 3,
            "children": ["Nikhil", "Nadia", "Nithya"],
            "carCapacity": 6,
            "location": {
                "address": "7596 Auden Trail",
                "city": "Atlanta",
                "state": "GA",
                "zipCode": "30350"
            }
        },
        {
            "userId": "24",
            "name": "Angela Martin",
            "numchildren": 1,
            "children": ["Alessandra"],
            "carCapacity": 5,
            "location": {
                "address": "4555 Village Dr",
                "city": "Dunwoody",
                "state": "GA",
                "zipCode": "30338"
            }
        },
        {
            "userId": "25",
            "name": "Stanley Hudson",
            "numchildren": 1,
            "children": ["Mark"],
            "carCapacity": 3,
            "location": {
                "address": "4416 Village Oaks Trail",
                "city": "Dunwoody",
                "state": "GA",
                "zipCode": "30308"
            }
        },
        {
            "userId": "26",
            "name": "Kevin Malone",
            "numchildren": 2,
            "children": ["Timothy", "Timothee"],
            "carCapacity": 7,
            "location": {
                "address": "4665 Ashford Club Dr",
                "city": "Dunwoody",
                "state": "GA",
                "zipCode": "30338"
            }
        },
        {
            "userId": "27",
            "name": "Phyllis Vance",
            "numchildren": 1,
            "children": ["Paul"],
            "carCapacity": 5,
            "location": {
                "address": "4864 Manget Ct",
                "city": "Dunwoody",
                "state": "GA",
                "zipCode": "30338"
            }
        },
        {
            "userId": "28",
            "name": "Karen Filippeli",
            "numchildren": 2,
            "children": ["Lindsay", "Rainn"],
            "carCapacity": 4,
            "location": {
                "address": "415 Otter Creek Ct",
                "city": "Atlanta",
                "state": "GA",
                "zipCode": "30328"
            }
        },
        {
            "userId": "29",
            "name": "Oscar Martinez",
            "numchildren": 2,
            "children": ["Zack", "Katelyn"],
            "carCapacity": 3,
            "location": {
                "address": "6835 Hunters Trace Cir NE",
                "city": "Atlanta",
                "state": "GA",
                "zipCode": "30328"
            }
        },
        {
            "userId": "30",
            "name": "Ryan Howard",
            "numchildren": 1,
            "children": ["Creed"],
            "carCapacity": 3,
            "location": {
                "address": "740 Orchard Ct",
                "city": "Atlanta",
                "state": "GA",
                "zipCode": "30328"
            }
        }
    ]
}
